City_ID,City,Lat,Lng,Max Temp,Humidity,Cloudiness,Wind Speed,Country,Date
0,saipan,15.1355,145.701,31.39,70,40,8.75,MP,1701405677
1,adamstown,-25.066,-130.1015,21.56,70,31,3.26,PN,1701405677
2,albany,42.6001,-73.9662,6.52,71,46,0.89,US,1701405678
3,itupiranga,-5.1347,-49.3267,25.18,83,22,2.04,BR,1701405678
4,waitangi,-43.9535,-176.5597,13.79,74,8,1.79,NZ,1701405678
5,ancud,-41.8697,-73.8203,11.25,87,100,6.87,CL,1701405678
6,talnakh,69.4865,88.3972,-19.89,92,84,0.89,RU,1701405679
7,petropavlovsk-kamchatsky,53.0452,158.6483,-1.67,77,20,8.0,RU,1701405478
8,thompson,55.7435,-97.8558,-19.91,65,0,5.14,CA,1701405679
9,ust'-barguzin,53.45,108.9833,-5.47,76,100,3.26,RU,1701405680
10,brookings,44.3114,-96.7984,-3.79,71,0,0.0,US,1701405680
11,korop,51.5664,32.9586,-2.06,97,100,5.34,UA,1701405681
12,toba,34.4833,136.85,11.16,51,82,4.02,JP,1701405681
13,east london,-33.0153,27.9116,18.52,72,0,6.69,ZA,1701405682
14,bengkulu,-3.8004,102.2655,27.69,74,100,2.39,ID,1701405683
15,puerto ayora,-0.7393,-90.3518,24.75,91,94,2.68,EC,1701405683
16,stanley,54.868,-1.6985,-0.96,93,66,1.66,GB,1701405684
17,puerto real,36.5282,-6.1901,18.07,88,100,6.69,ES,1701405684
18,malpica,43.3228,-8.8105,11.79,71,82,6.0,ES,1701405684
19,saijo,33.9167,133.1833,10.96,73,94,6.39,JP,1701405685
20,avarua,-21.2078,-159.775,26.03,73,95,4.12,CK,1701405685
21,antofagasta,-23.65,-70.4,18.6,76,9,1.79,CL,1701405686
22,san luis de la loma,17.2706,-100.8939,25.55,77,100,1.78,MX,1701405687
23,nuuk,64.1835,-51.7216,6.34,56,75,2.57,GL,1701405581
24,gadzhiyevo,69.2551,33.3362,-13.98,98,91,3.21,RU,1701405688
25,udachny,66.4167,112.4,-24.2,83,77,7.85,RU,1701405537
26,pervomayskoye,43.919,46.7102,7.25,88,28,2.4,RU,1701405689
27,puerto natales,-51.7236,-72.4875,1.29,79,9,3.03,CL,1701405690
28,margaret river,-33.95,115.0667,22.79,61,5,3.96,AU,1701405690
29,isafjordur,66.0755,-23.124,-1.48,77,100,5.67,IS,1701405691
30,nouadhibou,20.931,-17.0347,19.99,88,100,2.57,MR,1701405691
31,egilsstadir,65.2653,-14.3948,-0.05,93,100,6.17,IS,1701405692
32,badger,64.8,-147.5333,-7.58,89,75,0.0,US,1701405692
33,arkhangel'sk,64.5401,40.5433,-10.94,92,75,6.0,RU,1701405641
34,san rafael,-34.6177,-68.3301,19.42,64,49,1.69,AR,1701405631
35,salahonda,2.1019,-78.7217,25.97,85,99,3.02,CO,1701405694
36,vorgashor,67.5833,63.95,-21.72,96,76,1.76,RU,1701405695
37,tura,25.5198,90.2201,25.47,49,2,1.0,IN,1701405695
38,grytviken,-54.2811,-36.5092,3.29,90,88,4.6,GS,1701405696
39,vila franca do campo,37.7167,-25.4333,13.23,67,89,2.13,PT,1701405696
40,kapiri mposhi,-13.9652,28.6809,18.38,92,100,3.04,ZM,1701405696
41,monrovia,6.3005,-10.7969,23.87,83,45,0.57,LR,1701405594
42,port elizabeth,-33.918,25.5701,19.06,80,0,4.63,ZA,1701405698
43,bilibino,68.0546,166.4372,-26.01,88,75,1.78,RU,1701405698
44,port mathurin,-19.6833,63.4167,25.31,78,27,6.28,MU,1701405698
45,namdrik,5.5994,168.1028,27.45,82,71,8.74,MH,1701405699
46,shenjiamen,29.9576,122.298,8.53,42,5,9.11,CN,1701405699
47,hermanus,-34.4187,19.2345,18.51,84,12,8.11,ZA,1701405699
48,bamboo flat,11.7,92.7167,29.05,79,100,2.57,IN,1701405700
49,truro,50.2653,-5.0544,2.6,80,83,4.63,GB,1701405700
50,tiksi,71.6872,128.8694,-23.08,95,100,8.79,RU,1701405701
51,cockburn town,21.4612,-71.1419,27.18,74,55,9.76,TC,1701405701
52,invercargill,-46.4,168.35,14.08,52,1,4.98,NZ,1701405701
53,poronaysk,49.2167,143.1167,-8.49,71,4,1.48,RU,1701405702
54,ternate,0.8,127.4,29.33,72,41,2.56,ID,1701405580
55,jamestown,42.097,-79.2353,8.08,61,75,3.6,US,1701405659
56,afaahiti,-17.75,-149.2833,27.93,89,93,7.39,PF,1701405703
57,kailua-kona,19.6406,-155.9956,24.98,86,75,5.14,US,1701405653
58,port-aux-francais,-49.35,70.2167,2.03,81,36,13.93,TF,1701405704
59,andergrove,-21.0833,149.1833,32.58,75,68,8.12,AU,1701405704
60,iqaluit,63.7506,-68.5145,-3.15,79,100,12.35,CA,1701405705
61,punta arenas,-53.15,-70.9167,1.06,86,20,4.63,CL,1701405705
62,klyuchi,52.2667,79.1667,0.31,55,79,5.92,RU,1701405705
63,sao gabriel da cachoeira,-0.1303,-67.0892,22.42,99,99,0.91,BR,1701405705
64,gornozavodsk,58.3758,58.3211,-11.04,97,100,0.93,RU,1701405706
65,jackson,42.4165,-122.8345,5.58,94,100,0.45,US,1701405597
66,north ward,-19.2454,146.8075,29.49,63,11,5.62,AU,1701405706
67,siwa oasis,29.2041,25.5195,13.48,50,1,1.34,EG,1701405706
68,san angelo,31.4638,-100.437,11.97,54,1,0.45,US,1701405676
69,moissala,8.3404,17.7663,23.02,45,33,1.3,TD,1701405707
70,bulungu,-4.55,18.6,20.81,98,86,0.29,CD,1701405707
71,livingstone,-17.8419,25.8543,20.24,72,100,4.0,ZM,1701405708
72,praia da vitoria,38.7333,-27.0667,12.64,87,75,1.07,PT,1701405708
73,at taj,24.2049,23.2857,13.0,37,0,3.52,LY,1701405553
74,hotan,37.0997,79.9269,5.16,23,100,0.47,CN,1701405709
75,mukalla,14.5425,49.1242,26.61,56,17,1.09,YE,1701405709
76,akobo,7.4344,3.9497,22.67,96,6,0.37,NG,1701405709
77,beloyarskiy,63.7119,66.6722,-21.2,100,66,1.36,RU,1701405709
78,st. john's,47.5649,-52.7093,-1.91,88,75,3.09,CA,1701405537
79,fort mcmurray,56.7268,-111.381,-4.23,80,100,2.06,CA,1701405710
80,kapuskasing,49.4169,-82.4331,-13.95,92,0,3.09,CA,1701405482
81,labrador city,52.9463,-66.9114,-8.05,93,75,1.03,CA,1701405711
82,inarajan village,13.2736,144.7484,31.54,84,39,7.55,GU,1701405711
83,blackmans bay,-43.0167,147.3167,18.74,61,76,1.79,AU,1701405711
84,tallbisah,34.8406,36.7309,9.68,73,59,1.24,SY,1701405711
85,edinburgh of the seven seas,-37.0676,-12.3116,12.72,71,96,8.09,SH,1701405712
86,puerto baquerizo moreno,-0.9,-89.6,24.08,79,43,3.97,EC,1701405712
87,hasaki,35.7333,140.8333,10.22,62,100,1.65,JP,1701405415
88,labytnangi,66.6572,66.4183,-23.77,100,83,0.95,RU,1701405516
89,ca mau,9.1769,105.15,30.79,61,99,6.25,VN,1701405713
90,west bay,19.3667,-81.4167,27.22,84,53,0.89,KY,1701405713
91,changtu,42.7788,124.0955,-7.12,64,11,4.11,CN,1701405713
92,felege neway,6.3,36.8833,19.47,56,91,0.57,ET,1701405714
93,uspenskoye,44.8311,41.3927,6.5,93,98,3.44,RU,1701405714
94,bermejo,-32.8833,-68.8,22.95,88,40,1.54,AR,1701405714
95,fuglafjordur,62.244,-6.814,1.26,66,85,7.93,FO,1701405715
96,el bauga,18.262,33.9081,22.23,75,0,4.02,SD,1701405715
97,new norfolk,-42.7826,147.0587,19.4,43,87,2.64,AU,1701405715
98,mount gambier,-37.8333,140.7667,18.66,63,92,4.92,AU,1701405715
99,dul'durga,50.6761,113.5931,-9.15,76,100,5.96,RU,1701405716
100,bengbu,32.9408,117.3608,8.26,17,1,2.57,CN,1701405716
101,al kharj,24.155,47.3346,15.32,29,0,0.89,SA,1701405716
102,gaiman,-43.2897,-65.4929,19.36,37,67,3.17,AR,1701405716
103,praia,14.9215,-23.5087,24.3,78,75,5.14,CV,1701405717
104,bodo,67.28,14.405,-4.98,73,0,5.66,NO,1701405717
105,olonkinbyen,70.9221,-8.7187,-1.18,74,43,6.15,SJ,1701405717
106,chonchi,-42.6128,-73.8092,11.18,97,100,2.2,CL,1701405718
107,nohar,29.1833,74.7667,21.02,54,18,2.37,IN,1701405718
108,bonthe,7.5264,-12.505,25.23,89,59,1.79,SL,1701405718
109,kilindoni,-7.9139,39.6668,28.02,77,62,4.65,TZ,1701405718
110,dunda,-8.1167,34.25,18.58,93,100,0.83,TZ,1701405719
111,ar ruseris,11.8659,34.3869,26.87,30,15,1.87,SD,1701405719
112,kodiak,57.79,-152.4072,0.73,93,100,2.57,US,1701405573
113,nanfeng,23.7434,111.7959,16.99,58,93,3.15,CN,1701405720
114,sovetskiy,61.3614,63.5842,-9.5,95,100,3.13,RU,1701405720
115,mamuju,-2.6748,118.8885,29.32,74,50,2.32,ID,1701405720
116,daytona beach,29.2108,-81.0228,20.05,87,100,1.79,US,1701405500
117,fale old settlement,-9.3852,-171.2468,29.26,77,85,7.71,TK,1701405721
118,nar'yan-mar,67.6713,53.087,-9.38,98,100,1.79,RU,1701405721
119,tevriz,57.509,72.4042,-2.91,92,100,2.33,RU,1701405721
120,padangsidempuan,1.3667,99.2667,30.03,65,97,1.35,ID,1701405722
121,tabou,4.423,-7.3528,25.07,89,65,1.36,CI,1701405451
122,fort bragg,35.139,-79.006,7.12,79,0,0.0,US,1701405722
123,hawaiian paradise park,19.5933,-154.9731,22.73,97,100,2.06,US,1701405722
124,bethel,41.3712,-73.414,9.2,67,0,4.12,US,1701405723
125,yellowknife,62.456,-114.3525,-14.71,85,100,3.6,CA,1701405723
126,macapa,0.0389,-51.0664,25.99,89,75,1.03,BR,1701405723
127,qaqortoq,60.7167,-46.0333,0.45,70,100,4.92,GL,1701405724
128,garoowe,8.4054,48.4845,24.98,38,66,7.83,SO,1701405724
129,kourou,5.1552,-52.6478,25.03,83,77,2.94,GF,1701405724
130,scarborough,54.2797,-0.4044,1.06,92,99,0.45,GB,1701405573
131,springs,-26.25,28.4,15.09,63,0,3.96,ZA,1701405725
132,outjo,-20.1167,16.15,20.15,55,96,3.18,NA,1701405725
133,port lincoln,-34.7333,135.8667,18.01,60,13,7.68,AU,1701405725
134,ilulissat,69.2167,-51.1,6.01,28,54,13.89,GL,1701405725
135,port alfred,-33.5906,26.891,18.43,79,4,1.34,ZA,1701405726
136,ussuriysk,43.7986,131.9508,-5.1,52,13,3.23,RU,1701405726
137,kruisfontein,-34.0033,24.7314,26.01,27,0,4.66,ZA,1701405726
138,morigaon,26.3796,92.3415,24.42,54,17,2.93,IN,1701405727
139,toul,48.6667,5.9167,7.16,97,100,2.06,FR,1701405727
140,north platte,41.1239,-100.7654,-1.6,80,20,0.89,US,1701405622
141,ushuaia,-54.8,-68.3,5.81,49,0,1.03,AR,1701405612
142,kilimatinde,-5.85,34.95,23.52,65,97,0.47,TZ,1701405728
143,hamilton,39.1834,-84.5333,12.35,52,100,3.58,US,1701405728
144,bridlington,54.0831,-0.1919,0.85,64,98,5.7,GB,1701405728
145,lang suan,9.9456,99.0785,28.92,70,93,3.44,TH,1701405729
146,nemuro,43.3236,145.575,0.03,42,15,7.22,JP,1701405729
147,west island,-12.1568,96.8225,27.99,61,41,6.17,CC,1701405729
148,qamdo,31.1667,97.2333,0.22,31,51,3.57,CN,1701405729
149,nova sintra,14.8667,-24.7167,22.07,76,100,4.95,CV,1701405443
150,pucon,-39.2822,-71.9543,10.24,96,57,1.68,CL,1701405730
151,papatowai,-46.5619,169.4708,12.56,58,10,3.9,NZ,1701405730
152,dunedin,-45.8742,170.5036,12.2,67,20,4.65,NZ,1701405731
153,vladikavkaz,43.0367,44.6678,4.66,93,75,3.0,RU,1701405731
154,remire-montjoly,4.9167,-52.2667,25.02,88,0,0.0,GF,1701405732
155,luganville,-15.5333,167.1667,28.45,74,73,5.08,VU,1701405732
156,namibe,-15.1961,12.1522,23.79,82,100,2.09,AO,1701405733
157,arraial do cabo,-22.9661,-42.0278,23.29,92,0,4.31,BR,1701405733
158,ushtobe,45.2514,77.9838,5.36,69,99,2.31,KZ,1701405733
159,gaspe,48.8334,-64.4819,1.95,69,75,2.57,CA,1701405733
160,barcelos,41.5388,-8.6151,9.91,84,85,1.21,PT,1701405527
161,shimo-furano,43.35,142.3833,-5.78,90,100,3.85,JP,1701405734
162,gamba,-2.65,10.0,24.36,94,100,2.84,GA,1701405734
163,mitu,1.1983,-70.1733,22.37,98,100,0.41,CO,1701405601
164,farafangana,-22.8167,47.8333,24.6,87,99,5.19,MG,1701405735
165,balashov,51.5502,43.1667,-2.99,78,38,2.75,RU,1701405735
166,alofi,-19.0595,-169.9187,28.94,70,75,4.63,NU,1701405735
167,laojunmiao,39.8333,97.7333,2.84,12,2,1.96,CN,1701405736
168,blora,-6.9698,111.4186,29.61,70,100,2.61,ID,1701405736
169,happy valley-goose bay,53.3168,-60.3315,-5.83,73,40,4.12,CA,1701405736
170,dikhil,11.5,42.1667,23.03,59,97,2.89,DJ,1701405737
171,yokadouma,3.5167,15.05,20.55,93,23,0.24,CM,1701405737
172,georgetown,5.4112,100.3354,31.96,70,20,3.09,MY,1701405590
173,yulinshi,38.2906,109.7494,-2.21,24,0,1.9,CN,1701405737
174,kassala,15.451,36.4,24.38,58,79,3.19,SD,1701405739
175,itoman,26.1247,127.6694,21.43,57,75,5.66,JP,1701405739
176,flying fish cove,-10.4217,105.6791,28.82,61,75,4.63,CX,1701405739
177,bondo,3.8146,23.6866,19.68,97,49,0.73,CD,1701405740
178,iquique,-20.2208,-70.1431,19.02,74,49,1.18,CL,1701405740
179,singarayakonda,15.25,80.0333,26.22,78,100,5.2,IN,1701405740
180,hualien city,23.9769,121.6044,19.38,91,100,6.47,TW,1701405741
181,termoli,41.9888,14.9895,17.62,69,100,7.84,IT,1701405741
182,aasiaat,68.7098,-52.8699,-3.38,80,93,0.7,GL,1701405741
183,altos,-5.0381,-42.46,27.17,83,49,2.27,BR,1701405504
184,guerrero negro,27.9769,-114.0611,18.22,68,91,4.76,MX,1701405742
185,zhelezinka,53.54,75.3072,-1.04,85,87,6.85,KZ,1701405742
186,nyurba,63.2842,118.3319,-27.82,97,59,2.22,RU,1701405743
187,korla,41.7597,86.1469,3.69,36,100,2.27,CN,1701405743
188,usakos,-22.0,15.6,20.75,61,65,1.78,NA,1701405743
189,wenling,28.3669,121.36,11.27,42,99,6.43,CN,1701405744
190,nova vicosa,-17.8919,-39.3719,24.22,89,100,3.68,BR,1701405744
191,mzimba,-11.9,33.6,17.95,93,100,3.2,MW,1701405744
192,eminabad,32.0422,74.2594,20.37,45,5,2.74,PK,1701405745
193,alice springs,-23.7,133.8833,28.75,42,0,2.57,AU,1701405745
194,buta,2.7858,24.73,20.4,97,65,0.92,CD,1701405745
195,pyapon,16.2833,95.6833,31.6,50,71,4.75,MM,1701405746
196,whitehorse,60.7161,-135.0538,-6.57,79,75,5.14,CA,1701405746
197,todos santos,23.45,-110.2167,21.36,63,45,2.36,MX,1701405734
198,richards bay,-28.783,32.0377,20.06,63,17,3.27,ZA,1701405747
199,ribeira grande,38.5167,-28.7,15.43,67,97,3.13,PT,1701405747
200,hadibu,12.65,54.0333,26.76,64,99,7.94,YE,1701405747
201,boende,-0.2167,20.8667,21.32,94,89,0.67,CD,1701405748
202,lihue,21.9789,-159.3672,24.58,89,100,6.69,US,1701405748
203,luleburgaz,41.4039,27.3592,11.97,91,84,4.01,TR,1701405748
204,port hedland,-20.3167,118.5667,32.03,55,18,8.75,AU,1701405749
205,portland,45.5234,-122.6762,4.78,93,100,3.09,US,1701405681
206,taro,-8.3862,115.28,23.0,87,99,1.16,ID,1701405749
207,okhotsk,59.3833,143.3,-21.91,85,8,5.74,RU,1701405558
208,tazovsky,67.4667,78.7,-22.88,100,70,1.69,RU,1701405750
209,vila velha,-20.3297,-40.2925,25.97,85,20,4.12,BR,1701405547
210,ta`u,-14.2336,-169.5144,28.03,82,57,7.52,AS,1701405750
211,longyearbyen,78.2186,15.6401,-10.09,62,20,7.2,SJ,1701405750
212,valparaiso,-33.0393,-71.6273,13.8,94,100,1.54,CL,1701405713
213,cidreira,-30.1811,-50.2056,21.1,96,51,3.97,BR,1701405751
214,karratha,-20.7377,116.8463,32.05,41,6,9.96,AU,1701405751
215,holualoa,19.6228,-155.9522,22.91,87,75,5.14,US,1701405752
216,myeik,12.4333,98.6,31.42,58,22,1.12,MM,1701405752
217,gasa,31.5,34.4667,17.53,74,1,1.73,PS,1701405752
218,broken hill,-31.95,141.4333,24.67,34,100,2.51,AU,1701405752
219,pont rouge,48.8833,-72.0825,2.16,98,100,4.01,CA,1701405753
220,launceston,-41.45,147.1667,20.8,49,100,3.6,AU,1701405561
221,atafu village,-8.5421,-172.5159,29.38,77,99,7.01,TK,1701405753
222,carrigaline,51.8117,-8.3986,0.34,86,20,5.66,IE,1701405753
223,cobija,-11.0267,-68.7692,22.7,98,100,2.23,BO,1701405754
224,utrik,11.2278,169.8474,27.43,77,100,9.11,MH,1701405754
225,hovd,48.0056,91.6419,-10.06,77,78,1.12,MN,1701405754
226,nasarawa,8.5294,7.7242,24.48,55,4,0.8,NG,1701405755
227,ad dujayl,33.8467,44.2344,13.44,46,91,3.69,IQ,1701405755
228,ketchikan,55.3422,-131.6461,5.26,87,100,10.29,US,1701405756
229,huron,41.1501,-82.5499,10.38,64,57,5.7,US,1701405756
230,wotho,10.1657,166.0102,28.06,78,98,8.6,MH,1701405756
231,uturoa,-16.7333,-151.4333,27.03,85,88,8.15,PF,1701405756
232,morant bay,17.8815,-76.4093,26.79,81,30,3.5,JM,1701405757
233,sinabang,2.4803,96.3801,27.95,78,89,1.03,ID,1701405757
234,lebu,-37.6167,-73.65,12.36,82,92,2.01,CL,1701405757
235,quibala,-10.7337,14.98,15.36,98,87,0.47,AO,1701405758
236,lerwick,60.1545,-1.1494,1.0,69,69,1.38,GB,1701405758
237,kenai,60.5544,-151.2583,0.08,98,100,0.0,US,1701405758
238,el paso,31.8001,-106.2005,11.81,38,40,3.09,US,1701405743
239,enewetak,11.3474,162.3373,27.63,79,100,7.48,MH,1701405759
240,susuman,62.7833,148.1667,-20.0,99,100,1.45,RU,1701405759
241,svetlyy yar,48.4748,44.781,-1.22,77,47,1.12,RU,1701405759
242,oban,56.4127,-5.4706,-2.01,81,94,1.29,GB,1701405760
243,westport,41.1415,-73.3579,9.9,66,0,6.17,US,1701405524
244,iskateley,67.6803,53.1512,-9.43,98,100,1.79,RU,1701405760
245,tame,6.461,-71.73,23.44,60,38,2.74,CO,1701405760
246,taroudant,30.4703,-8.877,15.57,25,33,0.97,MA,1701405761
247,itaituba,-4.2761,-55.9836,23.27,91,12,0.85,BR,1701405761
248,leava,-14.3,-178.1667,28.45,80,99,6.42,WF,1701405761
249,tsiombe,-25.3,45.4833,21.69,71,100,5.31,MG,1701405762
250,mejit,10.2753,170.8646,27.66,77,100,8.74,MH,1701405762
251,san rafael del yuma,18.4299,-68.6739,26.76,87,6,3.88,DO,1701405762
252,kristiansund,63.1115,7.732,-1.64,69,100,2.57,NO,1701405763
253,mthatha,-31.5889,28.7844,14.31,88,0,0.0,ZA,1701405763
254,aral,40.5156,81.2636,5.01,36,100,1.2,CN,1701405763
255,colonia,50.9333,6.95,1.57,87,100,1.54,DE,1701405763
256,magadan,59.5667,150.8,-9.15,88,100,8.08,RU,1701405764
257,cacheu,12.2706,-16.1658,25.05,68,90,2.04,GW,1701405764
258,prince rupert,54.3161,-130.3201,6.83,78,0,11.83,CA,1701405764
259,castillos,-34.1667,-53.8333,19.04,98,69,3.07,UY,1701405765
260,san patricio,28.017,-97.5169,21.92,92,100,0.38,US,1701405765
261,nongpoh,25.9,91.8833,19.76,48,9,1.82,IN,1701405765
262,anadyr,64.75,177.4833,-5.72,73,20,3.0,RU,1701405766
263,dryden,49.7833,-92.7503,-11.84,92,40,3.09,CA,1701405766
264,ulsteinvik,62.3432,5.8487,1.53,61,66,0.45,NO,1701405766
265,minas de marcona,-15.2119,-75.1103,13.93,87,58,5.14,PE,1701405767
266,semenivka,52.1783,32.5818,-3.01,97,100,4.11,UA,1701405767
267,kayyerkan,69.3786,87.7439,-19.84,83,82,1.82,RU,1701405767
268,brisas de zicatela,15.8369,-97.0419,25.29,73,0,1.54,MX,1701405768
269,parry sound,45.3501,-80.033,5.95,81,98,4.76,CA,1701405768
270,'ain benian,36.8028,2.9219,14.03,41,99,2.64,DZ,1701405768
271,howrah,22.5892,88.3103,27.0,57,15,4.63,IN,1701405768
272,murzuq,25.9155,13.9184,14.12,28,0,3.69,LY,1701405769
273,general villegas,-35.0328,-63.0125,19.24,93,57,2.68,AR,1701405633
274,mkushi,-13.6202,29.3939,18.27,94,100,2.94,ZM,1701405769
275,muyinga,-2.8333,30.3333,16.4,90,68,0.68,BI,1701405770
276,letlhakane,-21.4167,25.5833,18.58,67,3,7.48,BW,1701405770
277,vesoul,47.5833,5.8333,6.16,98,100,0.4,FR,1701405770
278,saint-philippe,-21.3585,55.7679,28.77,65,62,4.21,RE,1701405772
279,sitka,57.0531,-135.33,2.94,81,40,0.0,US,1701405772
280,corner brook,48.9667,-57.9484,-0.91,81,89,2.96,CA,1701405772
281,san antonio de pale,-1.4014,5.6325,26.78,82,98,5.49,GQ,1701405772
282,nogliki,51.8333,143.1667,-11.48,72,42,6.26,RU,1701405773
283,binhe,32.6883,112.8275,9.71,35,62,2.62,CN,1701405773
284,nagqu,31.5,92.0,-1.77,31,8,3.74,CN,1701405773
285,sungai penuh,-2.0833,101.3833,22.95,76,100,0.7,ID,1701405773
286,tadine,-21.55,167.8833,25.38,72,64,3.17,NC,1701405774
287,bam,29.106,58.357,17.77,40,2,1.08,IR,1701405774
288,ust-nera,64.5667,143.2,-25.17,99,100,1.12,RU,1701405774
289,alesund,62.4723,6.1549,1.53,63,100,3.09,NO,1701405775
290,harstad,68.799,16.5293,-1.88,89,100,5.36,NO,1701405775
291,kerema,-7.9631,145.7785,29.24,73,59,2.52,PG,1701405775
292,kuzovatovo,53.5468,47.6866,-11.57,97,66,1.87,RU,1701405776
293,tralee,52.2704,-9.7026,0.46,79,36,0.59,IE,1701405776
294,kirakira,-10.4544,161.9205,28.74,78,100,4.66,SB,1701405776
295,lushun,38.8,121.2667,3.12,49,6,4.92,CN,1701405776
296,starke,29.9441,-82.1098,14.3,100,100,3.6,US,1701405777
297,al wajh,26.2455,36.4525,20.97,46,0,1.54,SA,1701405777
298,constantia,44.1833,28.65,4.38,84,93,5.46,RO,1701405777
299,urangan,-25.3,152.9,26.17,77,91,10.11,AU,1701405778
300,trittau,53.6167,10.4,-3.85,96,62,1.97,DE,1701405778
301,berdigestyakh,62.0989,126.6992,-24.2,91,99,4.26,RU,1701405778
302,wailua homesteads,22.0669,-159.378,24.24,92,100,6.69,US,1701405778
303,hami,42.8,93.45,3.51,19,4,0.35,CN,1701405779
304,mikhaylovka,50.06,43.2379,-1.7,71,45,2.26,RU,1701405779
305,saint-pierre,-21.3393,55.4781,28.82,61,75,1.03,RE,1701405772
306,zaragoza,41.6561,-0.8773,12.79,78,75,4.47,ES,1701405609
307,tucumcari,35.1717,-103.725,-2.09,93,0,2.06,US,1701405780
308,cill airne,52.05,-9.5167,-0.06,82,40,0.54,IE,1701405780
309,pacific grove,36.6177,-121.9166,13.43,82,100,2.06,US,1701405660
310,sao vicente,-23.9631,-46.3919,27.1,96,6,2.03,BR,1701405781
311,bardai,11.65,7.2333,19.88,21,85,4.27,NG,1701405781
312,nalchiti,22.6333,90.2833,27.43,47,8,3.79,BD,1701405781
313,yuzhno-kurilsk,44.0306,145.8556,-2.57,59,77,6.26,RU,1701405781
314,carnarvon,-24.8667,113.6333,25.8,66,9,5.24,AU,1701405782
315,sangmelima,2.9333,11.9833,19.73,96,53,0.71,CM,1701405782
316,lipljan,42.5217,21.1258,8.93,81,75,5.66,XK,1701405782
317,hirara,24.8,125.2833,20.15,73,75,9.77,JP,1701405560
318,veinticinco de mayo,-35.4323,-60.1727,20.55,70,71,3.58,AR,1701405783
319,santa elena de uairen,4.6167,-61.1333,19.49,74,100,1.59,VE,1701405784
320,souillac,-20.5167,57.5167,27.21,69,20,4.63,MU,1701405784
321,agadez,19.75,10.25,16.65,18,0,4.17,NE,1701405784
322,crixas,-14.5489,-49.9692,25.47,49,13,0.79,BR,1701405785
323,island harbour,50.724,-1.2758,1.1,87,100,2.68,GB,1701405526
324,chifeng,42.2683,118.9636,-3.77,27,2,5.48,CN,1701405785
325,mil'kovo,55.6078,37.7956,-3.92,98,84,3.08,RU,1701405786
326,kapustin yar,48.5831,45.7372,0.38,83,29,2.08,RU,1701405786
327,donaghadee,54.6333,-5.5333,-1.04,64,25,1.33,GB,1701405787
328,es castell,39.8795,4.2854,18.3,83,79,9.62,ES,1701405787
329,dickinson,29.4608,-95.0513,23.04,95,75,4.63,US,1701405519
330,lae,-6.7221,146.9847,34.37,69,68,4.34,PG,1701405788
331,margate,51.3813,1.3862,4.83,78,46,3.13,GB,1701405788
332,onega,63.9061,38.1404,-9.22,86,100,4.68,RU,1701405788
333,dudinka,69.4058,86.1778,-19.66,85,72,2.59,RU,1701405789
334,kachug,53.9606,105.8817,-12.19,83,70,0.45,RU,1701405789
335,gourdon,44.75,1.5,5.77,95,100,2.1,FR,1701405790
336,asasa,7.1,39.2,13.22,53,20,1.82,ET,1701405790
337,callao,-12.0667,-77.15,22.07,77,0,5.14,PE,1701405790
338,harper,4.375,-7.7169,25.39,87,27,0.98,LR,1701405791
339,crane,31.3974,-102.3501,11.64,39,17,3.95,US,1701405791
340,zag,46.9441,99.165,-8.64,56,4,1.54,MN,1701405791
341,bredasdorp,-34.5322,20.0403,19.53,75,8,7.62,ZA,1701405792
342,tahoua,14.8888,5.2692,23.38,17,2,5.61,NE,1701405792
343,barra dos coqueiros,-10.9089,-37.0386,26.01,78,20,3.09,BR,1701405792
344,kalamata,37.0389,22.1142,13.95,66,20,2.06,GR,1701405793
345,bubaque,11.2833,-15.8333,27.67,71,75,6.06,GW,1701405793
346,adrar,20.5022,-10.0711,19.61,14,84,3.21,MR,1701405793
347,terenozek,45.05,64.9833,2.74,37,18,5.09,KZ,1701405794
348,matane,48.8286,-67.522,0.49,84,100,7.19,CA,1701405684
349,camayenne,9.535,-13.6878,27.05,89,40,3.09,GN,1701405759
350,siguiri,11.6667,-9.5,23.87,35,86,0.87,GN,1701405795
351,areia branca,-4.9561,-37.1369,25.68,77,8,6.11,BR,1701405795
352,la'ie,21.6477,-157.9253,26.98,76,99,5.07,US,1701405795
353,north bend,43.4065,-124.2243,8.37,93,100,2.06,US,1701405795
354,kloulklubed,7.0419,134.2556,31.28,74,99,5.69,PW,1701405796
355,mount pearl,47.5166,-52.7813,-2.37,89,75,3.09,CA,1701405796
356,weno,7.4515,151.8468,28.69,76,14,5.87,FM,1701405796
357,sinjai,-5.1241,120.253,31.36,60,100,3.84,ID,1701405797
358,tahe,52.3333,124.7333,-6.81,44,30,1.46,CN,1701405797
359,baijiantan,45.6333,85.1833,3.81,28,47,0.61,CN,1701405797
360,rumbek,6.802,29.6912,25.13,70,42,2.07,SS,1701405798
361,la passe,45.5549,-0.8967,8.13,83,100,3.77,FR,1701405798
362,pionerskiy,54.9508,20.2275,-2.09,76,98,9.5,RU,1701405798
363,mahdia,35.5047,11.0622,13.97,29,24,8.74,TN,1701405798
364,hithadhoo,-0.6,73.0833,27.75,77,100,5.42,MV,1701405799
365,voskresenskoye,56.8381,45.4317,-10.29,97,84,2.13,RU,1701405799
366,kuala belait,4.5833,114.1833,30.09,69,92,2.34,BN,1701405799
367,avellaneda,-29.1176,-59.6583,23.81,97,2,3.4,AR,1701405800
368,raipur,21.2333,81.6333,27.08,65,20,2.06,IN,1701405800
369,payakumbuh,-0.2202,100.6308,29.84,60,98,0.48,ID,1701405801
370,yevpatoriya,45.1972,33.3558,11.4,88,79,11.73,UA,1701405801
371,nuzvid,16.7833,80.85,27.47,46,82,5.23,IN,1701405801
372,el calafate,-50.3408,-72.2768,4.18,62,0,3.71,AR,1701405802
373,chibougamau,49.9168,-74.3659,-5.21,93,100,4.12,CA,1701405802
374,suva,-18.1416,178.4415,30.71,66,20,4.63,FJ,1701405802
375,gebeit,21.0667,36.3167,20.4,86,1,2.98,SD,1701405802
376,ochakiv,46.6128,31.5498,10.01,91,100,11.26,UA,1701405803
377,brooks,50.5834,-111.8851,-9.42,89,36,2.57,CA,1701405803
378,dapaong,10.8639,0.205,26.67,32,2,1.81,TG,1701405803
379,qui nhon,13.7667,109.2333,26.24,88,83,7.31,VN,1701405804
380,dalbandin,28.8947,64.4101,18.21,37,1,1.01,PK,1701405804
381,pochep,52.9336,33.4464,-3.95,96,100,3.91,RU,1701405804
382,two rivers,44.1539,-87.5693,3.33,79,0,0.45,US,1701405804
383,lorengau,-2.0226,147.2712,28.84,76,85,2.73,PG,1701405805
384,scottburgh,-30.2867,30.7532,19.34,69,39,6.15,ZA,1701405805
385,taoudenni,22.6783,-3.9836,17.65,18,81,1.54,ML,1701405805
386,shanwei,22.782,115.3475,22.49,53,39,4.51,CN,1701405806
387,kiama,-34.6833,150.8667,22.47,82,27,6.32,AU,1701405806
388,wildwood,38.5828,-90.6629,7.53,94,100,2.06,US,1701405806
389,toliara,-23.35,43.6667,26.03,66,92,6.33,MG,1701405807
390,greymouth,-42.4667,171.2,15.63,62,100,2.09,NZ,1701405807
391,porto novo,6.4965,2.6036,25.39,92,9,1.41,BJ,1701405770
392,alibag,18.6411,72.8792,27.04,67,11,2.37,IN,1701405808
393,bahia blanca,-38.7196,-62.2724,24.34,48,54,4.02,AR,1701405608
394,mangrol,21.1167,70.1167,25.31,48,0,4.92,IN,1701405808
395,umm kaddadah,13.6017,26.6876,21.36,22,31,8.05,SD,1701405808
396,lazaro cardenas,17.9583,-102.2,25.09,85,95,1.53,MX,1701405809
397,warmbaths,-24.8833,28.2833,18.06,63,0,1.08,ZA,1701405809
398,mana,5.6592,-53.7767,25.42,87,100,3.62,GF,1701405809
399,hajduszoboszlo,47.45,21.4,4.06,100,100,0.51,HU,1701405810
400,acapulco de juarez,16.8634,-99.8901,26.9,83,75,2.06,MX,1701405810
401,st. paul,44.9444,-93.0933,-0.87,75,0,2.57,US,1701405810
402,noumea,-22.2763,166.4572,31.99,73,29,5.46,NC,1701405533
403,road town,18.4167,-64.6167,27.05,67,29,8.85,VG,1701405771
404,mammoth lakes,37.6485,-118.9721,-2.59,69,40,0.89,US,1701405811
405,urcos,-13.6861,-71.6228,11.94,86,92,1.64,PE,1701405811
406,yakeshi,49.2833,120.7333,-17.27,85,32,2.53,CN,1701405812
407,rongelap,11.1635,166.8941,27.93,75,100,8.88,MH,1701405812
408,nieuw amsterdam,5.8833,-55.0833,25.01,88,100,3.8,SR,1701405812
409,mount isa,-20.7333,139.5,37.87,28,40,7.2,AU,1701405813
410,malvan,16.0667,73.4667,28.6,62,48,2.58,IN,1701405814
411,aldan,58.6031,125.3894,-16.32,94,100,5.48,RU,1701405655
412,nikolayevsk-on-amure,53.1406,140.73,-14.55,70,100,2.79,RU,1701405814
413,alta,69.9689,23.2717,-0.41,86,100,4.12,NO,1701405815
414,clearwater,27.9659,-82.8001,20.61,75,0,3.13,US,1701405783
415,genzano di lucania,40.8479,16.0308,12.4,61,100,3.8,IT,1701405815
416,tubarjal,30.4999,38.216,14.22,58,0,2.89,SA,1701405816
417,sandnessjoen,66.0217,12.6316,-4.77,63,0,4.12,NO,1701405816
418,tynda,55.1667,124.7167,-15.66,81,45,0.78,RU,1701405816
419,marsabit,2.3284,37.9899,21.82,48,58,2.04,KE,1701405817
420,arno,60.1167,18.6333,-0.12,94,100,8.19,SE,1701405817
421,santiago de cuba,20.0247,-75.8219,25.06,88,20,1.54,CU,1701405817
422,mokrin,45.9358,20.4072,11.35,84,100,2.19,RS,1701405817
423,san pedro pochutla,15.7333,-96.4667,23.83,81,56,1.63,MX,1701405818
424,kirensk,57.7853,108.1119,-14.46,93,100,3.58,RU,1701405818
425,zahedan,29.4963,60.8629,13.95,54,0,0.0,IR,1701405818
426,tazacorte,28.629,-17.9293,18.54,97,75,3.6,ES,1701405818
427,greenwood,34.1668,-82.1165,5.2,70,0,1.54,US,1701405718
428,juneau,58.3019,-134.4197,2.0,97,100,3.6,US,1701405819
429,krasnyy chikoy,50.3643,108.7512,-7.37,68,38,2.87,RU,1701405819
430,presidente medici,-11.1753,-61.9014,22.83,94,51,1.18,BR,1701405820
431,pacocha,-17.5833,-71.3333,18.86,86,65,2.57,PE,1701405820
432,najran,17.4924,44.1277,13.36,51,7,0.95,SA,1701405820
433,santarem,-2.4431,-54.7083,27.07,83,0,3.6,BR,1701405820
434,seven pagodas,12.6264,80.1722,27.03,74,44,5.49,IN,1701405821
435,kutum,14.2,24.6667,16.76,26,0,2.82,SD,1701405821
436,cox's bazar,21.4532,91.9798,26.67,59,100,2.94,BD,1701405560
437,atar,20.5169,-13.0499,19.36,20,82,1.26,MR,1701405821
438,nahiyat ghammas,31.7431,44.6196,14.72,50,0,3.21,IQ,1701405822
439,lagos,6.5833,3.75,25.18,94,12,0.69,NG,1701405542
440,revda,56.801,59.9303,-11.82,98,98,0.89,RU,1701405822
441,cromwell,41.5951,-72.6454,9.42,73,0,3.09,US,1701405819
442,vanino,49.0869,140.2543,-12.26,55,0,3.61,RU,1701405823
443,santiago de cao,-7.9589,-79.2392,19.07,88,75,3.6,PE,1701405823
444,sabha,27.0377,14.4283,14.64,24,0,3.29,LY,1701405824
445,necochea,-38.5473,-58.7368,19.85,52,45,6.29,AR,1701405824
446,port antonio,18.18,-76.4612,26.95,83,55,2.64,JM,1701405824
447,el porvenir,13.7617,-87.3458,24.63,74,66,2.74,HN,1701405824
448,mogila,41.1083,21.3786,9.25,87,100,2.26,MK,1701405825
449,santa ana,33.7456,-117.8678,16.02,85,20,1.54,US,1701405691
450,luis correia,-2.8792,-41.6669,26.49,79,98,4.49,BR,1701405825
451,cabedelo,-6.9811,-34.8339,26.37,79,76,4.91,BR,1701405815
452,banaz,38.7371,29.7519,6.93,91,8,0.63,TR,1701405826
453,wickenburg,33.9686,-112.7296,11.36,78,98,0.65,US,1701405631
454,coracora,-15.0333,-73.7833,11.41,51,53,0.47,PE,1701405826
455,jaru,-10.4389,-62.4664,22.85,95,61,1.01,BR,1701405827
456,sao joao da barra,-21.6403,-41.0511,23.18,93,96,5.04,BR,1701405827
457,sao felix do xingu,-6.6447,-51.995,21.68,90,22,0.94,BR,1701405827
458,uray,60.1247,64.7758,-10.63,97,100,1.79,RU,1701405827
459,anloga,5.7947,0.8973,26.96,84,34,3.53,GH,1701405828
460,belmonte,-15.8631,-38.8828,24.61,85,44,3.69,BR,1701405530
461,tarawa,1.419,172.984,31.05,70,75,3.09,KI,1701405828
462,sorochinsk,52.4338,53.1583,0.1,99,100,3.96,RU,1701405828
463,king,47.4665,-121.8179,0.22,92,100,4.02,US,1701405829
464,sale,34.0389,-6.8166,18.19,54,70,2.06,MA,1701405829
465,valley city,46.9233,-98.0032,-3.71,86,100,3.6,US,1701405829
466,daru,-9.0763,143.2092,30.14,68,38,5.39,PG,1701405830
467,barentu,15.1139,37.5928,22.36,41,70,2.34,ER,1701405830
468,oak hill,37.9723,-81.1487,7.17,65,78,2.44,US,1701405830
469,chumphon,10.3333,98.8333,28.29,64,94,4.0,TH,1701405831
470,puerto deseado,-47.7503,-65.8938,8.79,61,100,5.77,AR,1701405831
471,rio verde de mato grosso,-18.9181,-54.8442,24.48,71,99,2.0,BR,1701405825
472,pasni,25.2631,63.471,24.61,64,0,4.87,PK,1701405832
473,minab,27.1467,57.0801,24.09,59,0,0.37,IR,1701405832
474,natal,-5.795,-35.2094,25.12,88,20,1.54,BR,1701405773
475,tres palos,18.1833,-101.6167,21.54,89,97,1.28,MX,1701405832
476,touros,-5.1989,-35.4608,25.17,87,58,4.18,BR,1701405832
477,edeia,-17.3383,-49.9314,23.41,66,96,1.52,BR,1701405833
478,les avirons,-21.2418,55.3394,27.05,61,75,1.03,RE,1701405833
479,kikwit,-5.041,18.8162,20.85,98,85,0.48,CD,1701405833
480,bouca,6.5105,18.2733,22.01,79,96,1.25,CF,1701405834
481,bel ombre,-4.6167,55.4167,28.91,74,40,2.57,SC,1701405834
482,sisimiut,66.9395,-53.6735,1.19,71,100,3.31,GL,1701405834
483,codrington,-38.2667,141.9667,17.49,72,95,7.64,AU,1701405834
484,auki,-8.7676,160.7034,29.17,71,100,1.64,SB,1701405835
485,preobrazheniye,42.9019,133.9064,-5.33,45,7,2.21,RU,1701405835
486,saldanha,-33.0117,17.9442,17.03,84,3,3.12,ZA,1701405835
487,clodomira,-27.5744,-64.1311,22.32,91,39,1.03,AR,1701405835
488,khandyga,62.6667,135.6,-30.26,99,100,0.62,RU,1701405836
489,pandan,14.0453,124.1694,27.46,87,82,6.89,PH,1701405836
490,gobabis,-22.45,18.9667,24.63,48,31,6.03,NA,1701405836
491,aksuat,48.7167,83.7,2.16,44,100,0.78,KZ,1701405836
492,guankou,28.15,113.6333,11.89,54,74,0.42,CN,1701405837
493,qusmuryn,52.4503,64.6311,-4.0,89,99,4.42,KZ,1701405684
494,jwaneng,-24.6004,24.7303,18.91,57,0,8.44,BW,1701405837
495,parras de la fuente,25.4167,-102.1833,16.21,31,57,3.03,MX,1701405837
496,zheshart,62.0731,49.5733,-14.72,99,100,1.68,RU,1701405838
497,arroyo,41.6096,-4.7969,7.34,78,100,4.12,ES,1701405838
498,onguday,50.75,86.15,1.41,52,100,1.09,RU,1701405838
499,nueva esperanza,15.2667,-87.6,21.8,94,43,1.4,HN,1701405838
500,prabumulih,-3.45,104.25,27.08,82,98,0.85,ID,1701405839
501,lakatoro,-16.0999,167.4164,28.52,74,60,4.86,VU,1701405839
502,hammerfest,70.6634,23.6821,0.25,93,40,2.06,NO,1701405839
503,zhongshan,21.3226,110.5829,23.6,63,87,3.69,CN,1701405602
504,fort st. john,56.2499,-120.8529,-13.06,85,20,3.09,CA,1701405840
505,igarka,67.4667,86.5833,-24.03,97,89,3.33,RU,1701405840
506,recreo,-29.2818,-65.061,21.15,95,49,3.89,AR,1701405840
507,kaliua,-5.0606,31.7936,20.22,90,83,1.03,TZ,1701405841
508,icheon-si,37.2792,127.4425,1.61,32,0,3.09,KR,1701405841
509,pariaman,-0.619,100.12,28.03,71,90,2.85,ID,1701405841
510,maceio,-9.6658,-35.7353,24.69,94,75,1.54,BR,1701405806
511,novaya igirma,57.1334,103.9112,-11.77,79,100,2.61,RU,1701405842
512,kapa'a,22.0752,-159.319,24.99,92,100,6.69,US,1701405791
513,sur,22.5667,59.5289,25.89,53,0,1.55,OM,1701405842
514,papao,-17.75,-149.55,28.82,86,97,8.45,PF,1701405843
515,vilyuchinsk,52.9306,158.4028,-0.85,73,100,4.66,RU,1701405843
516,college,64.8569,-147.8028,-7.53,86,75,0.0,US,1701405843
517,argo,37.6333,22.7333,12.1,72,13,1.97,GR,1701405844
518,banda aceh,5.5577,95.3222,28.29,75,86,2.65,ID,1701405844
519,coahuayana de hidalgo,18.7,-103.6583,23.57,88,81,1.79,MX,1701405844
520,celestun,20.8667,-90.4,24.67,88,100,5.57,MX,1701405845
521,benjamin hill,30.1667,-111.1,12.4,61,99,2.73,MX,1701405845
522,ban houakhoua,20.2453,100.4547,30.0,44,64,0.19,LA,1701405845
523,kingston,17.997,-76.7936,26.53,83,20,3.09,JM,1701405585
524,ayr,55.4627,-4.6339,-2.05,93,0,2.57,GB,1701405846
525,lupane,-18.9315,27.807,18.6,71,95,3.96,ZW,1701405846
526,yaren,-0.5472,166.916,28.46,77,100,6.21,NR,1701405846
527,severo-yeniseyskiy,60.3725,93.0408,-8.57,98,100,1.34,RU,1701405847
528,vazante,-17.9869,-46.9078,21.66,71,54,1.76,BR,1701405847
529,ilheus,-14.7889,-39.0494,24.33,84,57,2.59,BR,1701405847
530,coacotla,17.9333,-94.675,21.98,94,61,1.04,MX,1701405847
531,yarmouth,41.7057,-70.2286,9.98,81,0,7.2,US,1701405590
532,laguna,38.421,-121.4238,12.99,63,0,3.6,US,1701405848
533,ypacarai,-25.4051,-57.2855,28.94,93,100,3.49,PY,1701405848
534,mtambile,-5.3833,39.7,27.72,78,45,4.58,TZ,1701405849
535,beaconsfield,45.4334,-73.8659,6.02,72,100,5.66,CA,1701405849
536,khabarovsk,48.4808,135.0928,-13.11,71,0,7.15,RU,1701405849
537,riosucio,5.4216,-75.7032,11.96,95,87,0.45,CO,1701405850
538,pindushi,62.9152,34.58,-7.54,94,100,3.38,RU,1701405850
539,puerto san jose,13.9256,-90.8244,24.94,79,23,1.94,GT,1701405850
540,misratah,32.3754,15.0925,17.55,37,2,6.19,LY,1701405851
541,baglung,28.2719,83.5898,21.55,27,100,1.73,NP,1701405851
542,luanco,43.6152,-5.7934,9.71,78,55,4.16,ES,1701405852
543,coquimbo,-29.9533,-71.3436,14.85,94,100,1.54,CL,1701405852
544,lycksele,64.5954,18.6735,-12.54,85,75,0.51,SE,1701405852
545,den burg,53.0542,4.7972,0.56,88,20,3.6,NL,1701405852
546,ponta delgada,37.7333,-25.6667,14.4,62,75,3.09,PT,1701405853
547,walvis bay,-22.9575,14.5053,17.53,88,75,1.54,NA,1701405853
548,kirkwall,58.9848,-2.9587,4.03,75,75,2.06,GB,1701405853
549,akureyri,65.6835,-18.0878,-1.04,93,100,3.09,IS,1701405854
550,zeya,53.75,127.2667,-8.06,50,6,0.55,RU,1701405854
551,kavaratti,10.5669,72.642,28.34,75,100,4.84,IN,1701405854
552,moab,38.5733,-109.5498,3.6,81,100,0.92,US,1701405855
553,akonolinga,3.7667,12.25,19.61,91,49,0.67,CM,1701405855
554,asola,45.2211,10.4136,5.44,95,100,0.42,IT,1701405855
555,muynoq,43.7683,59.0214,5.4,40,100,4.99,UZ,1701405856
556,santiago del estero,-27.7951,-64.2615,22.16,91,19,0.76,AR,1701405669
557,am timan,11.0297,20.2827,23.82,31,81,1.91,TD,1701405856
558,anton lizardo,19.05,-95.9833,24.12,91,81,2.89,MX,1701405857
559,puerto carreno,6.189,-67.4859,25.28,72,82,2.54,CO,1701405857
560,lompoc,34.6391,-120.4579,13.62,82,0,9.77,US,1701405857
561,apac,1.9756,32.5386,20.23,70,69,0.45,UG,1701405858
562,oras,12.1406,125.4397,27.81,85,29,4.65,PH,1701405858
563,mantua,45.1667,10.7833,5.59,91,100,0.89,IT,1701405858
564,meadow lake,34.8014,-106.5436,3.8,80,99,2.7,US,1701405859
565,margherita,27.2833,95.6833,25.55,43,12,1.44,IN,1701405859
566,sadao,6.6388,100.4234,28.9,80,100,3.52,TH,1701405859
567,beledweyne,4.7358,45.2036,27.09,55,20,6.86,SO,1701405860
568,djambala,-2.5447,14.7533,19.49,93,91,0.66,CG,1701405860
569,belaya kholunitsa,58.84,50.8528,-8.81,94,100,3.0,RU,1701405860
570,cuito,-12.3833,16.9333,15.74,97,100,2.29,AO,1701405861
571,concordia,-31.393,-58.0209,23.77,96,0,0.89,AR,1701405861
572,kalabo,-14.97,22.6814,20.16,89,100,1.98,ZM,1701405861
573,mbamba bay,-11.2833,34.7667,22.67,93,100,1.78,TZ,1701405861
574,tuy hoa,13.0833,109.3,26.41,89,100,6.05,VN,1701405862
575,shakawe,-18.3667,21.85,21.51,77,100,1.56,BW,1701405862
576,sirte,31.2089,16.5887,16.98,42,0,5.29,LY,1701405862
577,seminole,28.7086,-81.2081,18.92,90,20,3.09,US,1701405863
578,nueva loja,0.0847,-76.8828,21.04,99,70,1.17,EC,1701405863
579,lepsy,46.235,78.9456,4.6,59,97,2.72,KZ,1701405863
580,moyynkum,44.2914,72.9469,5.36,45,100,5.72,KZ,1701405864
